City_ID,City,Lat,Lng,Max Temp,Humidity,Cloudiness,Wind Speed,Country,Date
0,gazli,40.1333,63.45,4.09,50,98,4.83,UZ,1704910353
1,grytviken,-54.2811,-36.5092,5.21,96,100,1.54,GS,1704910353
2,kyzyl,51.7,94.45,-19.43,91,99,0.45,RU,1704910354
3,adamstown,-25.066,-130.1015,24.23,85,42,4.35,PN,1704910354
4,papatowai,-46.5619,169.4708,15.02,73,46,2.77,NZ,1704910355
5,dudinka,69.4058,86.1778,-30.18,96,68,4.02,RU,1704910360
6,albany,42.6001,-73.9662,8.23,59,90,3.13,US,1704910219
7,colonia,50.9333,6.95,-0.54,65,0,1.54,DE,1704910361
8,olonkinbyen,70.9221,-8.7187,-3.81,91,100,2.29,SJ,1704910361
9,mongoumba,3.6415,18.5936,25.99,22,46,0.75,CF,1704910361
10,puerto natales,-51.7236,-72.4875,16.25,48,75,6.69,CL,1704910362
11,port elizabeth,-33.918,25.5701,21.17,96,20,4.12,ZA,1704910362
12,puerto tirol,-27.3722,-59.0821,36.28,46,100,3.11,AR,1704910362
13,longyearbyen,78.2186,15.6401,-14.09,78,100,6.69,SJ,1704910362
14,ambodifotatra,-16.9833,49.85,28.1,78,97,7.73,MG,1704910362
15,talnakh,69.4865,88.3972,-27.93,96,76,3.07,RU,1704910362
16,wailua homesteads,22.0669,-159.378,21.24,79,0,3.09,US,1704910363
17,sinabang,2.4803,96.3801,26.41,83,100,1.11,ID,1704910363
18,jumla,29.2747,82.1838,2.7,29,0,2.15,NP,1704910363
19,castillos,-34.1667,-53.8333,26.77,68,85,5.17,UY,1704910363
20,tazovsky,67.4667,78.7,-26.73,98,92,4.51,RU,1704910369
21,roma,43.2128,-75.4557,6.09,64,100,4.12,US,1704910312
22,udachny,66.4167,112.4,-35.31,73,58,1.66,RU,1704910369
23,strugi-krasnyye,58.2675,29.1114,0.37,97,100,5.92,RU,1704910370
24,jamestown,42.097,-79.2353,0.57,99,100,8.23,US,1704910370
25,port-aux-francais,-49.35,70.2167,4.79,81,58,9.26,TF,1704910370
26,port alfred,-33.5906,26.891,21.77,89,100,4.25,ZA,1704910370
27,caleta de carquin,-11.0925,-77.6267,25.4,72,50,4.75,PE,1704910371
28,porto novo,6.4965,2.6036,28.9,74,20,3.91,BJ,1704910371
29,hadibu,12.65,54.0333,23.73,79,84,7.54,YE,1704910371
30,hasaki,35.7333,140.8333,4.22,61,100,12.61,JP,1704910371
31,nema,57.5067,50.5011,-23.41,100,58,2.97,RU,1704910371
32,saint-francois,46.4154,3.9054,0.36,100,100,2.06,FR,1704910371
33,boke,10.9409,-14.2967,33.74,25,96,2.16,GN,1704910371
34,tura,25.5198,90.2201,12.25,54,0,1.17,IN,1704910371
35,tekirova,36.5017,30.5272,13.88,75,97,3.6,TR,1704910372
36,geraldton,-28.7667,114.6,21.23,83,100,6.69,AU,1704910372
37,port mathurin,-19.6833,63.4167,28.04,78,33,5.22,MU,1704910372
38,ilulissat,69.2167,-51.1,7.01,57,75,8.23,GL,1704910372
39,retreat,38.8245,-85.8533,1.29,82,100,4.92,US,1704910372
40,bilibino,68.0546,166.4372,-32.96,99,99,0.8,RU,1704910373
41,naze,28.3667,129.4833,11.51,58,91,10.03,JP,1704910373
42,tamanrasset,22.785,5.5228,17.95,11,0,1.03,DZ,1704910373
43,san giovanni in fiore,39.2633,16.6996,4.32,96,100,0.58,IT,1704910373
44,happy valley-goose bay,53.3168,-60.3315,-16.83,51,100,1.03,CA,1704910373
45,kismayo,-0.3582,42.5454,26.65,79,71,7.05,SO,1704910235
46,weno,7.4515,151.8468,27.97,74,75,1.54,FM,1704910374
47,medvezh'yegorsk,62.9167,34.4667,-8.31,97,100,0.76,RU,1704910374
48,salinopolis,-0.6136,-47.3561,28.95,72,79,4.71,BR,1704910374
49,kidal,18.4411,1.4078,25.93,9,100,4.09,ML,1704910374
50,waitangi,-43.9535,-176.5597,14.9,72,97,2.68,NZ,1704910147
51,rio grande,-32.035,-52.0986,27.19,82,100,2.0,BR,1704910375
52,kununurra,-15.7667,128.7333,24.99,100,75,2.57,AU,1704910375
53,puerto colombia,10.9878,-74.9547,35.05,71,3,6.75,CO,1704910375
54,tarboro,35.8968,-77.5358,10.95,46,0,6.69,US,1704910375
55,aldama,22.9167,-98.0667,21.55,52,100,5.94,MX,1704910375
56,harstad,68.799,16.5293,-0.34,96,100,8.49,NO,1704910375
57,aiken,33.5835,-81.5998,10.74,54,0,7.2,US,1704910264
58,ribeira grande,38.5167,-28.7,15.43,94,75,5.66,PT,1704910375
59,faya-largeau,17.9257,19.1043,22.37,14,0,8.0,TD,1704910376
60,iqaluit,63.7506,-68.5145,-26.84,68,20,1.79,CA,1704910376
61,atafu village,-8.5421,-172.5159,29.06,73,57,5.0,TK,1704910376
62,ushuaia,-54.8,-68.3,9.81,57,75,9.77,AR,1704910376
63,argentan,48.75,-0.0167,-2.73,82,92,2.4,FR,1704910376
64,puerto ayora,-0.7393,-90.3518,30.98,87,37,3.58,EC,1704910376
65,kodiak,57.79,-152.4072,-3.27,80,0,1.54,US,1704910377
66,nelson,-41.2833,173.2833,14.6,87,96,1.34,NZ,1704910378
67,malakanagiri,18.35,81.9,21.65,53,85,0.74,IN,1704910378
68,brookings,44.3114,-96.7984,-7.01,89,75,6.17,US,1704910181
69,fada,9.5667,8.3,23.67,9,5,2.76,NG,1704910378
70,matoury,4.8483,-52.3317,29.98,74,100,7.2,GF,1704910378
71,laguna,38.421,-121.4238,10.05,81,100,6.69,US,1704910378
72,invercargill,-46.4,168.35,19.45,73,62,1.79,NZ,1704910378
73,vilyuchinsk,52.9306,158.4028,-18.93,84,100,2.79,RU,1704910361
74,isafjordur,66.0755,-23.124,4.34,87,47,4.87,IS,1704910379
75,uturoa,-16.7333,-151.4333,27.98,78,92,5.17,PF,1704910379
76,bethel,41.3712,-73.414,9.95,58,100,7.72,US,1704910379
77,goronyo,13.4423,5.6763,26.52,11,1,4.03,NG,1704910380
78,keflavik,64.0049,-22.5624,7.24,87,75,11.83,IS,1704910380
79,kamloops,50.6665,-120.3192,-2.45,50,75,4.63,CA,1704910380
80,mar del plata,-38.0023,-57.5575,22.51,60,0,4.47,AR,1704910380
81,pleiku,13.9833,108.0,15.18,96,91,2.17,VN,1704910380
82,dakhla,23.6848,-15.958,20.13,64,0,4.92,EH,1704910122
83,saudarkrokur,65.7461,-19.6394,1.9,79,22,6.51,IS,1704910380
84,valenca do piaui,-6.4075,-41.7456,29.86,61,88,0.43,BR,1704910381
85,torbat-e heydariyeh,35.274,59.2195,5.8,40,7,1.43,IR,1704910381
86,usakos,-22.0,15.6,23.46,29,57,6.64,NA,1704910381
87,punta arenas,-53.15,-70.9167,14.06,51,40,12.35,CL,1704910382
88,panjab,34.388,67.0233,-8.44,55,4,1.1,AF,1704910382
89,blackmans bay,-43.0167,147.3167,14.29,70,5,0.89,AU,1704910382
90,bredasdorp,-34.5322,20.0403,18.89,83,99,5.04,ZA,1704910382
91,margaret river,-33.95,115.0667,13.89,84,77,5.07,AU,1704910383
92,berezovo,63.9381,65.0419,-32.13,98,65,4.52,RU,1704910383
93,saldanha,-33.0117,17.9442,20.03,81,15,12.62,ZA,1704910383
94,magadan,59.5667,150.8,-22.38,86,99,2.89,RU,1704910383
95,parkes,-33.1333,148.1833,22.42,73,0,1.71,AU,1704910384
96,west island,-12.1568,96.8225,26.99,89,75,2.57,CC,1704910384
97,hamilton,39.1834,-84.5333,2.11,87,100,5.14,US,1704910179
98,palmer,42.1584,-72.3287,9.19,63,75,8.75,US,1704910288
99,irondale,33.5382,-86.7072,9.74,60,75,4.12,US,1704910384
100,phalaborwa,-23.943,31.1411,28.56,44,20,2.1,ZA,1704910384
101,sabang,5.8933,95.3214,27.58,80,63,5.82,ID,1704910384
102,ishigaki,24.3448,124.1572,14.07,58,40,6.17,JP,1704910385
103,northam,51.0333,-4.2167,4.78,78,36,7.64,GB,1704910385
104,plastun,44.7561,136.2939,-12.53,57,100,1.44,RU,1704910385
105,depok,-6.4,106.8186,27.58,89,98,1.63,ID,1704910385
106,aroma,15.8167,36.1333,28.99,27,11,3.02,SD,1704910386
107,nemuro,43.3236,145.575,-7.4,67,70,5.84,JP,1704910386
108,vila franca do campo,37.7167,-25.4333,19.23,99,100,14.34,PT,1704910386
109,rosarito,32.3333,-117.0333,14.03,67,41,2.05,MX,1704910386
110,vila velha,-20.3297,-40.2925,30.97,71,20,7.2,BR,1704910386
111,conduaga,8.862,117.4893,26.34,85,34,4.04,PH,1704910387
112,el calafate,-50.3408,-72.2768,14.86,55,36,7.49,AR,1704910387
113,moravce,46.1369,14.745,-2.73,70,83,0.99,SI,1704910387
114,lebu,-37.6167,-73.65,15.99,60,0,8.06,CL,1704910387
115,at taj,24.2049,23.2857,12.2,24,23,4.69,LY,1704910387
116,san antonio de pale,-1.4014,5.6325,27.0,78,74,5.38,GQ,1704910388
117,malone,44.8487,-74.2949,5.05,78,99,6.84,US,1704910297
118,lihue,21.9789,-159.3672,21.58,79,0,3.09,US,1704910388
119,aasiaat,68.7098,-52.8699,-3.93,90,91,6.95,GL,1704910389
120,tual,-5.6667,132.75,28.36,81,100,6.36,ID,1704910389
121,alta,69.9689,23.2717,-3.41,74,75,6.17,NO,1704910389
122,nova sintra,14.8667,-24.7167,20.91,64,0,7.39,CV,1704910391
123,badger,64.8,-147.5333,-18.07,71,75,1.54,US,1704910328
124,yung shue wan,22.2333,114.1167,18.71,74,12,0.89,HK,1704910391
125,santander,43.4647,-3.8044,6.92,82,75,3.6,ES,1704910392
126,guanica,17.9716,-66.908,31.69,56,51,6.86,PR,1704910392
127,neiafu,-18.65,-173.9833,27.42,79,70,4.31,TO,1704910393
128,easton,40.6884,-75.2207,7.98,59,60,4.47,US,1704910148
129,whitehorse,60.7161,-135.0538,-20.57,77,40,3.6,CA,1704910393
130,east london,-33.0153,27.9116,21.52,94,20,2.57,ZA,1704910393
131,barnard castle,54.5415,-1.919,4.72,94,100,5.6,GB,1704910393
132,antalaha,-14.9003,50.2788,25.72,90,99,2.59,MG,1704910393
133,rongelap,11.1635,166.8941,26.98,80,62,9.52,MH,1704910393
134,pointe-du-lac,46.2869,-72.6845,-0.01,98,100,3.09,CA,1704910394
135,ust'-uda,54.1742,103.0304,-28.52,100,97,0.73,RU,1704910394
136,afaahiti,-17.75,-149.2833,24.93,83,98,7.55,PF,1704910395
137,nar'yan-mar,67.6713,53.087,-17.16,97,100,3.58,RU,1704910395
138,iguape,-24.7081,-47.5553,29.5,72,7,5.96,BR,1704910166
139,fisterra,42.9049,-9.2629,9.86,77,95,8.61,ES,1704910396
140,idri,27.5,13.2667,13.14,22,73,3.35,LY,1704910396
141,crane,31.3974,-102.3501,13.28,16,14,6.66,US,1704910397
142,undurkhaan,47.3194,110.6556,-19.35,86,0,1.58,MN,1704910397
143,moree,-29.4667,149.85,24.74,77,100,5.04,AU,1704910397
144,stanley,54.868,-1.6985,4.87,91,75,4.12,GB,1704910397
145,port lincoln,-34.7333,135.8667,17.16,86,3,4.85,AU,1704910397
146,sudogda,55.9539,40.8629,-19.6,96,56,2.44,RU,1704910397
147,fortuna,40.5982,-124.1573,10.92,97,75,7.72,US,1704910397
148,qaqortoq,60.7167,-46.0333,1.03,94,100,1.79,GL,1704910398
149,ensenada,31.8667,-116.6167,14.97,61,13,0.63,MX,1704910398
150,kapa'a,22.0752,-159.319,21.99,79,0,3.09,US,1704910399
151,kirillov,59.863,38.3813,-12.23,95,100,4.99,RU,1704910399
152,san luis de la loma,17.2706,-100.8939,28.72,62,96,2.79,MX,1704910400
153,utrik,11.2278,169.8474,26.64,79,82,10.08,MH,1704910400
154,labrador city,52.9463,-66.9114,-13.19,91,100,7.68,CA,1704910211
155,yellowknife,62.456,-114.3525,-38.71,67,20,2.06,CA,1704910382
156,zhanga buqtyrma,49.6295,83.5248,2.36,93,100,6.73,KZ,1704910401
157,iskateley,67.6803,53.1512,-17.21,97,100,3.58,RU,1704910401
158,belle glade,26.6845,-80.6676,22.79,60,56,2.77,US,1704910401
159,flin flon,54.7682,-101.865,-24.09,77,100,4.12,CA,1704910401
160,walvis bay,-22.9575,14.5053,18.92,76,53,6.91,NA,1704910401
161,rabo de peixe,37.8,-25.5833,18.73,99,75,13.89,PT,1704910402
162,tocopilla,-22.092,-70.1979,23.61,67,87,4.22,CL,1704910402
163,itamaraca,-7.7478,-34.8256,28.03,64,52,4.63,BR,1704910168
164,cabedelo,-6.9811,-34.8339,30.37,65,84,4.8,BR,1704910402
165,sandnessjoen,66.0217,12.6316,4.29,87,75,5.14,NO,1704910402
166,yumaguzino,52.9041,56.3933,-32.41,100,100,0.29,RU,1704910402
167,akjoujt,19.6969,-14.4164,28.91,9,0,2.12,MR,1704910403
168,yuzhno-kurilsk,44.0306,145.8556,-6.85,59,100,6.97,RU,1704910403
169,homer,59.6425,-151.5483,-2.07,76,0,2.06,US,1704910403
170,esmeraldas,-19.7625,-44.3139,29.17,77,83,0.37,BR,1704910403
171,edinburgh of the seven seas,-37.0676,-12.3116,16.66,88,100,4.4,SH,1704910403
172,vadso,70.0744,29.7487,-5.51,86,40,7.2,NO,1704910404
173,tralee,52.2704,-9.7026,0.14,86,0,1.54,IE,1704910404
174,el porvenir,13.7617,-87.3458,27.63,34,3,1.5,HN,1704910404
175,labytnangi,66.6572,66.4183,-31.06,98,93,2.87,RU,1704910404
176,tiksi,71.6872,128.8694,-31.87,95,100,6.21,RU,1704910404
177,nacala,-14.5428,40.6728,27.29,81,99,3.07,MZ,1704910404
178,soio,-6.1349,12.3689,27.29,74,56,3.51,AO,1704910405
179,haiku-pauwela,20.9219,-156.3051,21.69,91,20,3.13,US,1704910405
180,petropavlovsk-kamchatsky,53.0452,158.6483,-19.75,73,0,3.0,RU,1704910405
181,sitka,57.0531,-135.33,0.94,37,75,1.54,US,1704910405
182,lorengau,-2.0226,147.2712,27.51,74,100,1.2,PG,1704910405
183,enewetak,11.3474,162.3373,27.14,85,68,9.42,MH,1704910405
184,chelak,39.9203,66.8611,7.42,41,100,2.5,UZ,1704910405
185,constantia,44.1833,28.65,-2.39,65,7,5.74,RO,1704910406
186,madera,37.1666,-119.8343,10.29,91,18,1.62,US,1704910406
187,callao,-12.0667,-77.15,27.16,65,0,6.69,PE,1704910406
188,codrington,-38.2667,141.9667,13.55,95,8,0.68,AU,1704910406
189,simitli,41.8833,23.1167,-0.24,85,11,0.6,BG,1704910407
190,krasnyy kut,50.95,46.9667,-15.6,95,82,4.74,RU,1704910407
191,fort bragg,35.139,-79.006,11.57,49,0,5.66,US,1704910407
192,kangding,30.0513,101.9603,-0.03,65,65,1.12,CN,1704910407
193,arkhangel'sk,64.5401,40.5433,-9.37,100,100,2.0,RU,1704910407
194,bandarbeyla,9.4942,50.8122,25.03,72,23,10.4,SO,1704910408
195,anadyr,64.75,177.4833,-26.67,75,91,7.0,RU,1704910408
196,avarua,-21.2078,-159.775,26.03,83,75,3.09,CK,1704910408
197,vorkuta,67.5,64.0,-37.25,100,91,1.72,RU,1704910253
198,arroyo,41.6096,-4.7969,7.84,82,75,4.12,ES,1704910409
199,mejit,10.2753,170.8646,26.89,82,88,10.16,MH,1704910409
200,dryden,49.7833,-92.7503,-11.84,92,100,4.12,CA,1704910409
201,georgetown,5.4112,100.3354,26.96,93,20,2.06,MY,1704910409
202,acarau,-2.8856,-40.12,31.38,58,65,7.13,BR,1704910414
203,gaspe,48.8334,-64.4819,-2.05,93,100,10.29,CA,1704910415
204,sierra grande,-41.606,-65.3557,23.39,17,0,7.9,AR,1704910415
205,mbala,-8.8402,31.3659,16.16,97,100,1.2,ZM,1704910415
206,zabaykal'sk,49.6333,117.3167,-12.29,84,100,9.32,RU,1704910415
207,saipan,15.1355,145.701,25.39,88,20,2.06,MP,1704910415
208,prabumulih,-3.45,104.25,23.32,99,100,0.99,ID,1704910416
209,susuman,62.7833,148.1667,-40.01,100,96,0.45,RU,1704910416
210,barreirinha,-2.7933,-57.07,35.43,36,76,2.42,BR,1704910416
211,okha,53.5739,142.9478,-30.88,99,78,2.81,RU,1704910416
212,minas de marcona,-15.2119,-75.1103,23.12,59,66,5.68,PE,1704910416
213,divrigi,39.371,38.1137,4.41,97,100,1.25,TR,1704910416
214,ebon,4.582,168.6964,27.98,83,98,10.42,MH,1704910417
215,chonchi,-42.6128,-73.8092,17.56,42,5,3.08,CL,1704910417
216,wanning,18.8003,110.3967,20.56,84,74,4.0,CN,1704910417
217,olyokminsk,60.3736,120.4264,-18.9,98,97,1.7,RU,1704910417
218,new norfolk,-42.7826,147.0587,14.95,81,18,1.62,AU,1704910418
219,newman,37.3138,-121.0208,8.19,86,16,2.24,US,1704910418
220,tateyama,34.9833,139.8667,7.28,65,100,12.06,JP,1704910418
221,jindabyne,-36.4167,148.6333,15.87,90,1,0.45,AU,1704910418
222,karratha,-20.7377,116.8463,31.01,42,45,7.24,AU,1704910418
223,sinah,36.809,43.0389,7.88,73,58,3.15,IQ,1704910418
224,goba,7.0167,39.9833,12.79,68,81,1.32,ET,1704910419
225,vorgashor,67.5833,63.95,-36.88,100,92,1.62,RU,1704910419
226,remire-montjoly,4.9167,-52.2667,30.02,74,100,7.2,GF,1704910419
227,hermanus,-34.4187,19.2345,19.17,81,98,7.06,ZA,1704910419
228,college,64.8569,-147.8028,-18.03,71,75,1.54,US,1704910251
229,surman,32.7567,12.5716,14.62,32,51,1.33,LY,1704910419
230,badiyah,22.45,58.8,17.94,54,1,1.72,OM,1704910419
231,galle,6.0367,80.217,24.07,91,100,4.57,LK,1704910420
232,doba,8.65,16.85,27.12,12,1,2.72,TD,1704910420
233,hagere selam,6.4833,38.5167,10.89,74,92,0.25,ET,1704910420
234,stephenville,32.2207,-98.2023,15.98,26,0,8.23,US,1704910420
235,curaca,-8.9903,-39.9094,33.94,36,83,5.18,BR,1704910421
236,ixtapa,20.7,-105.2,25.13,64,75,1.34,MX,1704910421
237,hawaiian paradise park,19.5933,-154.9731,23.28,88,40,2.57,US,1704910421
238,fale old settlement,-9.3852,-171.2468,28.78,73,65,3.87,TK,1704910421
239,inarajan village,13.2736,144.7484,27.08,89,68,3.51,GU,1704910421
240,aykhal,66.0,111.5,-34.69,100,81,2.02,RU,1704910421
241,villa yapacani,-17.4,-63.8333,32.59,57,52,4.05,BO,1704910422
242,ust'-ilimsk,58.0006,102.6619,-28.64,100,96,2.24,RU,1704910422
243,abu al matamir,30.9102,30.1744,14.68,63,43,4.19,EG,1704910422
244,kuanda,56.3161,116.0806,-23.26,97,99,0.39,RU,1704910422
245,cidreira,-30.1811,-50.2056,26.11,83,79,5.08,BR,1704910423
246,abakaliki,6.3163,8.1169,30.45,14,1,2.63,NG,1704910423
247,puerto baquerizo moreno,-0.9,-89.6,28.55,74,75,6.17,EC,1704910228
248,ust-nera,64.5667,143.2,-45.23,96,83,1.17,RU,1704910423
249,roccella ionica,38.322,16.4009,12.2,78,100,3.21,IT,1704910423
250,san patricio,28.017,-97.5169,21.92,51,66,7.61,US,1704910423
251,sao felix do xingu,-6.6447,-51.995,33.99,40,92,2.41,BR,1704910423
252,savelugu,9.6244,-0.8253,34.3,19,24,1.96,GH,1704910423
253,thompson,55.7435,-97.8558,-25.91,76,100,3.6,CA,1704910423
254,boca do acre,-8.7522,-67.3978,30.33,71,98,1.2,BR,1704910424
255,guerrero negro,27.9769,-114.0611,17.32,63,97,7.35,MX,1704910424
256,tabas,33.5959,56.9244,10.12,22,0,2.06,IR,1704910424
257,majene,-3.5403,118.9707,26.29,85,93,1.85,ID,1704910424
258,al qubbah,32.7616,22.2424,9.39,70,100,5.11,LY,1704910424
259,brandfort,-28.7001,26.4597,18.67,88,94,6.31,ZA,1704910425
260,sarandi grande,-33.7333,-56.3333,29.0,50,100,4.22,UY,1704910425
261,matane,48.8286,-67.522,-0.34,81,100,8.72,CA,1704910426
262,peniche,39.3558,-9.3811,13.49,76,90,3.91,PT,1704910426
263,kavaratti,10.5669,72.642,27.77,78,64,5.17,IN,1704910426
264,armidale,-30.5167,151.65,16.34,97,91,1.55,AU,1704910295
265,gereshk,31.8209,64.5701,11.8,30,6,2.41,AF,1704910426
266,dawei,14.0833,98.2,22.31,79,90,1.1,MM,1704910426
267,bam,29.106,58.357,14.87,15,44,3.88,IR,1704910426
268,parabel',58.6978,81.4825,-10.05,93,100,9.83,RU,1704910427
269,truro,50.2653,-5.0544,3.6,70,0,5.66,GB,1704910296
270,pisco,-13.7,-76.2167,24.45,78,0,4.12,PE,1704910427
271,kutum,14.2,24.6667,20.57,26,0,4.94,SD,1704910429
272,bontang,0.1333,117.5,26.1,87,63,3.27,ID,1704910429
273,porrentruy,47.4153,7.0752,-1.03,92,67,2.08,CH,1704910429
274,nili,33.7218,66.1302,1.33,53,5,1.69,AF,1704910429
275,hailar,49.2,119.7,-20.33,97,99,2.57,CN,1704910429
276,kabinda,-6.1333,24.4833,19.64,97,99,2.27,CD,1704910430
277,sisimiut,66.9395,-53.6735,-6.59,93,100,6.29,GL,1704910430
278,kalach-na-donu,48.691,43.5264,-10.81,87,94,6.02,RU,1704910430
279,ad dawadimi,24.5077,44.3924,15.64,12,95,4.15,SA,1704910430
280,kapuskasing,49.4169,-82.4331,-13.95,78,100,6.69,CA,1704910431
281,vilyuysk,63.7553,121.6247,-38.89,97,98,3.13,RU,1704910431
282,mazamari,-11.3258,-74.5308,29.99,68,36,1.03,PE,1704910431
283,tofol,5.3248,163.0078,28.0,76,89,7.79,FM,1704910431
284,salekhard,66.53,66.6019,-31.79,100,96,3.2,RU,1704910431
285,pemangkat,1.1667,108.9667,25.67,91,99,3.08,ID,1704910432
286,sappemeer,53.1642,6.7903,-2.65,82,0,4.63,NL,1704910432
287,tahe,52.3333,124.7333,-28.95,100,99,0.47,CN,1704910432
288,yabelo,4.8833,38.0833,22.19,35,59,1.7,ET,1704910432
289,daru,-9.0763,143.2092,25.41,90,100,2.77,PG,1704910432
290,cambria,35.5641,-121.0808,12.81,63,0,1.34,US,1704910432
291,port macquarie,-31.4333,152.9167,21.61,91,65,2.57,AU,1704910408
292,mayskiy,47.6931,40.1025,-3.33,89,40,3.33,RU,1704910432
293,zharkent,44.1628,80.0,2.2,62,100,1.16,KZ,1704910433
294,bowen,-20.0167,148.2333,26.37,78,99,4.63,AU,1704910433
295,montepuez,-13.1256,38.9997,22.88,95,92,1.37,MZ,1704910433
296,namibe,-15.1961,12.1522,22.13,77,45,4.43,AO,1704910433
297,bodo,67.28,14.405,2.19,90,75,5.66,NO,1704910235
298,tolanaro,-25.0319,46.9987,25.19,81,40,7.25,MG,1704910433
299,opuwo,-18.0607,13.84,26.48,24,50,5.71,NA,1704910434
300,khandyga,62.6667,135.6,-48.6,98,32,0.87,RU,1704910434
301,dunedin,-45.8742,170.5036,12.67,91,74,1.79,NZ,1704910211
302,meulaboh,4.1363,96.1285,25.21,89,96,1.79,ID,1704910434
303,sao vicente,-23.9631,-46.3919,38.48,45,75,2.57,BR,1704910434
304,kingston,17.997,-76.7936,30.69,68,40,11.32,JM,1704910435
305,tezu,27.9167,96.1667,14.6,46,21,1.58,IN,1704910435
306,touros,-5.1989,-35.4608,29.77,59,1,5.72,BR,1704910435
307,hammerfest,70.6634,23.6821,-4.75,86,100,4.12,NO,1704910435
308,leava,-14.3,-178.1667,28.4,79,100,4.03,WF,1704910435
309,alvorada,-12.48,-49.1247,24.47,92,100,1.77,BR,1704910435
310,mouila,-1.8685,11.0559,23.81,96,81,1.29,GA,1704910435
311,saint croix,17.7397,-64.7388,30.25,75,0,6.17,VI,1704910343
312,carbonear,47.7332,-53.2148,-4.03,74,49,1.95,CA,1704910436
313,piti village,13.4626,144.6933,27.03,85,20,1.54,GU,1704910436
314,kailua-kona,19.6406,-155.9956,21.98,98,100,6.17,US,1704910437
315,cold lake,54.4502,-110.2017,-26.03,70,40,3.09,CA,1704910242
316,kerikeri,-35.2268,173.9474,21.06,75,88,2.8,NZ,1704910438
317,nanma,36.1817,118.1583,-1.06,68,0,3.82,CN,1704910438
318,mitu,1.1983,-70.1733,34.52,40,92,1.64,CO,1704910439
319,fort st. john,56.2499,-120.8529,-28.06,69,100,6.17,CA,1704910439
320,jinghong,21.991,100.7341,15.02,68,54,1.55,CN,1704910440
321,souillac,-20.5167,57.5167,26.21,78,20,3.09,MU,1704910440
322,boa vista,2.8197,-60.6733,33.99,43,75,5.66,BR,1704910440
323,nova vicosa,-17.8919,-39.3719,27.97,70,99,5.06,BR,1704910158
324,houmt el souk,33.8758,10.8575,12.97,44,20,2.06,TN,1704910440
325,male,4.1748,73.5089,25.97,94,100,8.23,MV,1704910441
326,las lajitas,-24.6833,-64.25,37.8,33,10,2.99,AR,1704910441
327,amga,60.8953,131.9608,-40.64,99,99,0.7,RU,1704910441
328,malanje,-9.5402,16.341,18.71,84,100,1.79,AO,1704910441
329,konarka,19.9,86.1167,22.22,62,44,0.84,IN,1704910441
330,revda,56.801,59.9303,-28.8,97,98,5.16,RU,1704910442
331,baicheng,45.6167,122.8167,-12.03,86,54,4.92,CN,1704910442
332,korla,41.7597,86.1469,-4.7,70,25,0.57,CN,1704910442
333,gunnedah,-30.9833,150.25,22.74,74,72,2.38,AU,1704910442
334,kulunda,52.566,78.9385,-9.31,80,99,14.33,RU,1704910442
335,borogontsy,62.6683,131.1683,-44.83,99,72,1.93,RU,1704910443
336,podporozh'ye,60.9112,34.1706,-7.98,95,100,3.83,RU,1704910443
337,balqash,46.8481,74.995,-5.19,72,55,8.1,KZ,1704910443
338,wakkanai,45.4094,141.6739,-7.17,69,100,1.34,JP,1704910443
339,paysandu,-32.3214,-58.0756,25.39,76,100,4.93,UY,1704910444
340,ambovombe,-25.1667,46.0833,25.41,78,47,6.11,MG,1704910444
341,beloretsk,53.9631,58.3981,-29.15,98,63,2.68,RU,1704910444
342,colares,38.7992,-9.4469,14.31,84,20,4.47,PT,1704910444
343,nueva palmira,-33.8833,-58.4167,30.25,50,93,4.13,UY,1704910445
344,mbanza kongo,-6.267,14.2401,22.2,95,49,1.28,AO,1704910445
345,queenstown,-31.8976,26.8753,18.2,89,74,2.87,ZA,1704910445
346,nuku'alofa,-21.1333,-175.2,26.66,84,99,7.27,TO,1704910445
347,vanimo,-2.6741,141.3028,25.98,88,100,0.32,PG,1704910445
348,filiatra,37.15,21.5833,10.39,57,56,0.81,GR,1704910446
349,marka,1.7159,44.7717,25.84,79,49,9.19,SO,1704910446
350,praia,14.9215,-23.5087,27.3,41,20,5.66,CV,1704910446
351,laughlin,35.1678,-114.573,12.23,35,2,0.45,US,1704910446
352,chulakkurgan,43.765,69.1814,-2.08,63,100,3.09,KZ,1704910446
353,pandan,14.0453,124.1694,25.21,88,42,6.34,PH,1704910447
354,lucheng,31.2336,117.2806,3.81,72,62,2.49,CN,1704910447
355,praia da vitoria,38.7333,-27.0667,18.2,94,75,17.24,PT,1704910449
356,st. john's,47.5649,-52.7093,-4.13,73,75,2.57,CA,1704910367
357,menomonie,44.8755,-91.9193,-1.23,80,100,1.88,US,1704910449
358,riasi,33.0833,74.8333,11.7,19,0,3.22,IN,1704910449
359,natal,-5.795,-35.2094,31.36,58,40,5.66,BR,1704910339
360,jiamusi,46.8333,130.35,-13.75,96,100,0.79,CN,1704910449
361,quibdo,5.6947,-76.6611,30.19,74,75,1.54,CO,1704910449
362,tadine,-21.55,167.8833,25.38,84,99,4.26,NC,1704910450
363,mogocha,53.7333,119.7667,-23.22,98,100,0.39,RU,1704910450
364,rikaze,29.25,88.8833,-2.0,21,0,0.15,CN,1704910450
365,angaur state,6.906,134.13,28.77,77,78,7.27,PW,1704910450
366,tashtyp,52.7939,89.8983,-16.22,98,99,0.32,RU,1704910451
367,ancud,-41.8697,-73.8203,16.83,55,0,2.35,CL,1704910451
368,gudur,14.1333,79.85,23.09,77,95,0.96,IN,1704910451
369,mutum biyu,8.6333,10.7667,26.88,8,2,1.31,NG,1704910452
370,juegang,32.3174,121.1855,0.8,76,7,1.7,CN,1704910452
371,nagqu,31.5,92.0,-12.96,32,0,1.69,CN,1704910453
372,turtas,58.9417,69.1325,-16.83,94,100,5.48,RU,1704910456
373,balaipungut,1.05,101.2833,23.92,97,100,0.12,ID,1704910457
374,sitia,35.2,26.0986,12.21,75,98,15.86,GR,1704910457
375,pavilosta,56.8879,21.1859,2.95,91,76,6.87,LV,1704910459
376,birao,10.2849,22.7882,25.58,17,1,1.02,CF,1704910460
377,trapani,37.8333,12.6667,10.71,93,75,2.57,IT,1704910460
378,lata,40.1629,-8.3327,11.71,95,89,1.28,PT,1704910460
379,garoua boulai,5.8833,14.55,23.88,18,7,0.94,CM,1704910461
380,kargasok,59.0556,80.8572,-10.8,93,100,10.27,RU,1704910461
381,pariaman,-0.619,100.12,25.03,89,100,1.64,ID,1704910343
382,genhe,50.7833,121.5167,-23.5,98,100,1.05,CN,1704910461
383,sao gabriel da cachoeira,-0.1303,-67.0892,26.89,89,75,2.06,BR,1704910463
384,bori,4.6737,7.362,28.82,69,17,5.18,NG,1704910467
385,polyarnyy,69.1989,33.4478,-6.47,73,100,12.14,RU,1704910468
386,mazar-e sharif,36.709,67.1109,12.48,31,100,1.34,AF,1704910469
387,spring creek,40.7266,-115.5859,-2.17,96,96,9.41,US,1704910469
388,shimoda,34.6667,138.95,5.06,77,99,10.93,JP,1704910229
389,hagi,34.4,131.4167,5.66,80,47,3.96,JP,1704910471
390,saint-philippe,-21.3585,55.7679,25.77,84,80,6.14,RE,1704910471
391,ilhabela,-23.7781,-45.3581,29.69,69,8,1.89,BR,1704910472
392,chililabombwe,-12.3648,27.8229,18.42,98,100,2.1,ZM,1704910473
393,antofagasta,-23.65,-70.4,22.56,68,47,5.05,CL,1704910185
394,peace river,56.2501,-117.286,-24.18,89,100,4.82,CA,1704910474
395,sorong,-0.8833,131.25,27.21,83,100,2.88,ID,1704910479
396,alice springs,-23.7,133.8833,27.34,26,8,3.24,AU,1704910480
397,san rafael,-34.6177,-68.3301,28.2,37,38,6.91,AR,1704910235
398,nadi,-17.8,177.4167,26.0,83,75,1.03,FJ,1704910480
399,cole harbour,44.6724,-63.4751,4.99,96,100,9.77,CA,1704910480
400,prince rupert,54.3161,-130.3201,1.83,74,0,11.32,CA,1704910480
401,colac,-38.3333,143.5833,13.24,97,15,1.06,AU,1704910480
402,miyaly,48.8844,53.7836,-9.55,95,100,2.8,KZ,1704910481
403,cananeia,-25.0147,-47.9267,28.7,74,6,3.97,BR,1704910481
404,sao joao da barra,-21.6403,-41.0511,32.05,84,100,5.09,BR,1704910481
405,tamarin,-20.3256,57.3706,26.4,70,97,5.57,MU,1704910481
406,natchez,31.5604,-91.4032,12.12,41,0,5.14,US,1704910481
407,deqen,29.9618,90.7188,-3.78,20,0,1.89,CN,1704910482
408,vangaindrano,-23.35,47.6,24.87,82,69,2.38,MG,1704910482
409,box elder,41.5005,-112.8764,-4.3,89,98,8.63,US,1704910482
410,luderitz,-26.6481,15.1594,19.11,79,4,10.38,NA,1704910483
411,jiangyou,31.7667,104.7167,8.39,82,20,1.04,CN,1704910483
412,samana,19.2056,-69.3369,30.98,70,20,3.09,DO,1704910483
413,la manga del mar menor,37.6413,-0.7165,14.0,88,20,2.57,ES,1704910467
414,bamboo flat,11.7,92.7167,23.05,94,20,1.03,IN,1704910484
415,mariental,-24.6333,17.9667,31.73,8,16,6.85,NA,1704910484
416,bartlett,35.2045,-89.874,7.81,63,0,4.12,US,1704910484
417,bubaque,11.2833,-15.8333,26.52,62,95,6.43,GW,1704910484
418,dubrovytsya,51.5744,26.565,-2.63,92,100,5.14,UA,1704910484
419,mokhsogollokh,61.4681,128.9203,-43.76,100,99,1.34,RU,1704910484
420,bengkulu,-3.8004,102.2655,24.26,90,100,1.32,ID,1704910485
421,huarmey,-10.0681,-78.1522,26.05,69,83,5.29,PE,1704910485
422,watsa,3.0372,29.5355,23.42,39,92,0.41,CD,1704910485
423,swakopmund,-22.6833,14.5333,18.38,82,50,5.2,NA,1704910485
424,al marj,32.488,20.8317,10.33,83,86,2.91,LY,1704910485
425,thinadhoo,0.5333,72.9333,27.99,77,100,3.59,MV,1704910486
426,eastham,41.8301,-69.9739,11.17,69,40,7.72,US,1704910486
427,dinas powys,51.4349,-3.214,4.73,82,20,3.6,GB,1704910486
428,farsan,32.2569,50.561,6.02,32,0,3.6,IR,1704910486
429,linxia chengguanzhen,35.6003,103.2064,-0.64,26,0,0.79,CN,1704910192
430,iranshahr,27.2025,60.6848,14.19,14,0,2.06,IR,1704910486
431,melo,-32.3667,-54.1833,27.28,68,100,3.55,UY,1704910486
432,abu qurqas,27.9312,30.8384,14.63,47,1,3.97,EG,1704910486
433,alaghsas,17.0187,8.0168,24.94,10,0,5.14,NE,1704910486
434,holyhead,53.3062,-4.6321,6.0,81,100,5.66,GB,1704910487
435,tambopata,-12.7333,-69.1833,32.94,62,40,4.12,PE,1704910487
436,gadzhiyevo,69.2551,33.3362,-6.57,71,100,12.34,RU,1704910488
437,turpan,42.9333,89.1667,-2.67,60,69,0.3,CN,1704910488
438,bikenibeu village,1.3673,173.1241,27.98,89,40,3.6,KI,1704910488
439,bamyan,34.75,67.25,-8.86,49,5,2.77,AF,1704910339
440,lagoa,39.05,-27.9833,17.37,86,100,17.68,PT,1704910279
441,kruisfontein,-34.0033,24.7314,19.94,93,97,5.35,ZA,1704910488
442,necochea,-38.5473,-58.7368,23.17,45,8,5.63,AR,1704910488
443,ingeniero jacobacci,-41.3427,-69.5448,23.01,14,0,3.15,AR,1704910489
444,onega,63.9061,38.1404,-10.86,96,100,1.51,RU,1704910489
445,lompoc,34.6391,-120.4579,13.9,58,0,7.2,US,1704910489
446,lucapa,-8.4192,20.7447,20.51,93,96,1.31,AO,1704910489
447,saint-felix-de-valois,46.1668,-73.4324,1.25,97,100,0.45,CA,1704910489
448,la sarre,48.8002,-79.1996,-6.61,93,100,5.51,CA,1704910475
449,myeik,12.4333,98.6,24.18,80,49,1.56,MM,1704910489
450,coquimbo,-29.9533,-71.3436,19.85,68,20,6.17,CL,1704910489
451,nguigmi,14.2495,13.1092,24.31,15,0,4.88,NE,1704910489
452,severo-yeniseyskiy,60.3725,93.0408,-31.35,100,36,1.79,RU,1704910490
453,goroka,-6.0834,145.3873,17.31,98,100,0.7,PG,1704910490
454,nacozari viejo,30.4,-109.65,10.94,16,5,3.0,MX,1704910490
455,marat,25.0701,45.4615,17.43,15,97,4.55,SA,1704910490
456,laojunmiao,39.8333,97.7333,-2.06,17,8,2.01,CN,1704910490
457,reichshoffen,48.9333,7.6667,-0.8,47,44,2.44,FR,1704910490
458,pimentel,-6.8367,-79.9342,27.16,65,0,7.72,PE,1704910490
459,dedovichi,57.5517,29.9502,0.73,97,100,6.7,RU,1704910491
460,morant bay,17.8815,-76.4093,30.95,86,66,6.63,JM,1704910491
461,mamuju,-2.6748,118.8885,26.25,86,97,3.16,ID,1704910491
462,pitimbu,-7.4706,-34.8086,30.33,63,68,4.79,BR,1704910491
463,lan sak,15.4529,99.5761,25.19,60,21,1.75,TH,1704910491
464,pachino,36.7186,15.0907,13.14,80,99,3.01,IT,1704910491
465,wagar,16.1525,36.2032,28.74,27,6,4.01,SD,1704910491
466,bonthe,7.5264,-12.505,28.7,72,37,5.55,SL,1704910492
467,nantucket,41.2835,-70.0995,11.08,76,40,9.26,US,1704910394
468,ipueiras,-7.0333,-40.45,30.69,44,85,2.71,BR,1704910492
469,sogndal,61.2283,7.1003,-5.79,86,0,0.0,NO,1704910492
470,atchison,39.563,-95.1216,0.28,86,75,5.95,US,1704910492
471,xilin hot,43.9667,116.0333,-9.54,84,75,4.75,CN,1704910492
472,akureyri,65.6835,-18.0878,2.96,70,0,7.2,IS,1704910492
473,al muwayh,22.4333,41.7583,19.35,14,86,4.38,SA,1704910492
474,san fernando de apure,7.8878,-67.4724,33.07,45,94,4.64,VE,1704910492
475,takehara,34.3383,132.9167,4.62,78,35,3.02,JP,1704910493
476,tikhvin,59.6451,33.5294,-6.55,95,100,4.04,RU,1704910493
477,camiri,-20.05,-63.5167,36.88,30,94,2.57,BO,1704910493
478,ca mau,9.1769,105.15,24.51,83,86,2.9,VN,1704910493
479,mishan,45.55,131.8833,-14.17,96,100,0.66,CN,1704910493
480,yakutsk,62.0339,129.7331,-45.58,63,93,2.0,RU,1704910221
481,saint-pierre,-21.3393,55.4781,25.82,73,0,7.2,RE,1704910493
482,altamira,-3.2033,-52.2064,34.2,39,96,2.13,BR,1704910248
483,barcelos,41.5388,-8.6151,13.08,92,100,0.58,PT,1704910493
484,tumpat,6.1978,102.171,26.99,83,20,3.6,MY,1704910494
485,vilhena,-12.7406,-60.1458,26.12,78,75,4.63,BR,1704910494
486,mineros,-17.1167,-63.2333,34.36,47,68,4.47,BO,1704910494
487,weining,26.85,104.2333,4.64,93,100,1.79,CN,1704910494
488,mount gambier,-37.8333,140.7667,12.67,97,20,1.21,AU,1704910494
489,ponta delgada,37.7333,-25.6667,19.4,88,75,13.89,PT,1704910494
490,nyiradony,47.6975,21.9188,-6.32,40,0,0.3,HU,1704910495
491,makoua,0.0069,15.6333,27.78,55,96,1.16,CG,1704910495
492,planaltina,-15.4528,-47.6142,25.03,68,100,2.05,BR,1704910206
493,quepos,9.4236,-84.1652,30.06,65,7,2.76,CR,1704910495
494,velikiy ustyug,60.7644,46.3106,-14.79,96,98,2.67,RU,1704910495
495,tozkhurmato,34.8905,44.6299,12.64,55,83,4.55,IQ,1704910495
496,massawa,15.6097,39.45,27.43,62,22,2.14,ER,1704910495
497,kitimat,54.0524,-128.6534,-6.79,45,79,1.96,CA,1704910495
498,gornopravdinsk,60.05,69.9,-19.1,96,100,5.15,RU,1704910495
499,kapoeta,4.7717,33.5903,31.54,26,87,3.33,SS,1704910496
500,portland,45.5234,-122.6762,4.99,93,75,5.66,US,1704910220
501,nejo,9.5,35.5,17.8,38,49,1.96,ET,1704910500
502,san julian,21.0167,-102.1667,18.42,26,100,6.67,MX,1704910500
503,tannum sands,-23.9504,151.3693,24.94,83,100,1.54,AU,1704910500
504,basco,20.4487,121.9702,21.42,72,85,14.41,PH,1704910500
505,gasa,31.5,34.4667,14.93,51,25,4.64,PS,1704910500
506,smithers,54.7804,-127.1743,-10.82,92,100,1.03,CA,1704910501
507,craig,40.5153,-107.5464,-5.03,54,0,7.2,US,1704910501
508,holualoa,19.6228,-155.9522,19.91,98,100,6.17,US,1704910501
509,nha trang,12.25,109.1833,25.0,89,88,2.78,VN,1704910501
510,richards bay,-28.783,32.0377,24.63,84,67,4.4,ZA,1704910502
511,munsan,37.8594,126.785,-4.02,89,22,1.05,KR,1704910502
512,kone,-21.0595,164.8658,23.86,89,99,2.19,NC,1704910502
513,mumbwa,-14.9783,27.0619,19.95,96,99,0.93,ZM,1704910503
514,tvoroyri,61.5556,-6.8111,6.26,67,16,3.21,FO,1704910503
515,bluefields,12.0137,-83.7635,29.5,64,22,2.84,NI,1704910504
516,n'dalatando,-9.2978,14.9116,21.43,87,94,2.03,AO,1704910504
517,el copey,10.1503,-73.9614,38.34,25,4,2.27,CO,1704910504
518,amuntai,-2.4177,115.2494,24.34,96,98,0.24,ID,1704910504
519,mesolongi,38.3702,21.4295,11.05,70,28,5.55,GR,1704910505
520,papao,-17.75,-149.55,25.82,77,98,7.98,PF,1704910505
521,hirara,24.8,125.2833,15.15,55,100,10.29,JP,1704910505
522,agios nikolaos,35.1914,25.7133,12.09,67,94,11.88,GR,1704910506
523,mirny,62.5353,113.9611,-31.19,100,96,1.54,RU,1704910506
524,oodweyne,9.4092,45.064,16.36,71,3,4.93,SO,1704910507
525,belmonte,-15.8631,-38.8828,28.51,64,95,3.36,BR,1704910507
526,dalandzadgad,43.5708,104.425,-7.72,76,7,3.13,MN,1704910508
527,motueka,-41.1333,173.0167,15.05,77,92,1.25,NZ,1704910359
528,vinh,18.6667,105.6667,21.13,92,83,0.83,VN,1704910508
529,worland,44.0169,-107.9554,-2.36,58,0,2.24,US,1704910509
530,carnarvon,-24.8667,113.6333,23.4,80,1,9.29,AU,1704910509
531,tinajo,29.0788,-13.7081,19.49,83,40,6.69,ES,1704910509
532,oyama,36.3,139.8,5.88,50,84,3.59,JP,1704910509
533,flying fish cove,-10.4217,105.6791,26.82,89,100,2.06,CX,1704910510
534,ezhou,30.4,114.8333,7.56,65,9,3.39,CN,1704910510
535,aver-o-mar,41.4078,-8.7812,13.31,88,75,1.54,PT,1704910510
536,wittingen,52.7269,10.7361,-4.45,83,0,1.97,DE,1704910511
537,tefe,-3.3542,-64.7114,29.06,79,40,0.0,BR,1704910511
538,norilsk,69.3535,88.2027,-28.77,95,64,2.44,RU,1704910511
539,batticaloa,7.7102,81.6924,25.77,84,100,4.93,LK,1704910511
540,tucupita,9.0622,-62.051,31.56,53,99,3.27,VE,1704910512
541,sanghar,26.0466,68.9481,15.2,29,0,3.0,PK,1704910512
542,fort mcmurray,56.7268,-111.381,-29.23,69,0,2.57,CA,1704910512
543,general conesa,-40.1,-64.4333,24.86,19,0,8.82,AR,1704910513
544,horqueta,-23.3428,-57.0597,42.83,21,68,3.49,PY,1704910513
545,mogadishu,2.0371,45.3438,25.97,79,46,10.26,SO,1704910513
546,olecko,54.0337,22.507,-0.4,97,100,6.55,PL,1704910514
547,yacuiba,-22.038,-63.6797,39.43,53,70,5.14,BO,1704910514
548,arraial do cabo,-22.9661,-42.0278,33.98,70,20,7.72,BR,1704910514
549,puerto leguizamo,-0.1934,-74.7819,34.91,36,50,1.79,CO,1704910514
550,rio brilhante,-21.8019,-54.5464,39.94,21,53,3.31,BR,1704910514
551,ribeira brava,32.65,-17.0667,20.56,89,66,4.42,PT,1704910515
552,muisne,0.6,-80.0333,25.68,87,97,3.65,EC,1704910515
553,guarena,38.8595,-6.0999,8.83,87,97,2.49,ES,1704910515
554,la gomera,14.0833,-91.05,32.31,45,4,2.84,GT,1704910516
555,gonabad,34.3529,58.6837,8.74,25,16,0.97,IR,1704910516
556,farasan,16.7022,42.1183,26.2,63,34,3.56,SA,1704910517
557,hotan,37.0997,79.9269,0.59,35,0,2.82,CN,1704910517
558,nchelenge,-9.3451,28.734,21.48,88,100,4.36,ZM,1704910517
559,ouezzane,34.7971,-5.5822,12.58,86,68,1.04,MA,1704910517
560,sinjai,-5.1241,120.253,25.24,87,100,1.8,ID,1704910517
